{ "features" : [ { "geometry" : { "coordinates" : [ -80.842200000000005,
  35.227899999999998
],
"type" : "Point"
},
"properties" : { "address1" : null,
  "address2" : null,
  "city" : "Charlotte",
  "description" : null,
  "id" : 4,
  "lastUpdateDate" : "2014-01-01T00:00:00.000Z",
  "name" : "Outside Qdoba",
  "state" : "NC",
  "totalDistributed" : 250,
  "totalUpdates" : 1,
  "zip" : null
},
"type" : "Feature"
},
{ "geometry" : { "coordinates" : [ -80.8429,
  35.227200000000003
],
"type" : "Point"
},
"properties" : { "address1" : null,
  "address2" : null,
  "city" : "Charlotte",
  "description" : null,
  "id" : 5,
  "lastUpdateDate" : "2014-01-01T00:00:00.000Z",
  "name" : "Outside Bank of America",
  "state" : "NC",
  "totalDistributed" : 250,
  "totalUpdates" : 1,
  "zip" : null
},
"type" : "Feature"
},
{ "geometry" : { "coordinates" : [ -80.841200000000001,
  35.2239
],
"type" : "Point"
},
"properties" : { "address1" : null,
  "address2" : null,
  "city" : "Charlotte",
  "description" : null,
  "id" : 6,
  "lastUpdateDate" : "2014-01-01T00:00:00.000Z",
  "name" : "Uptown bus terminal",
  "state" : "NC",
  "totalDistributed" : 250,
  "totalUpdates" : 1,
  "zip" : null
},
"type" : "Feature"
},
{ "geometry" : { "coordinates" : [ -80.843199999999996,
  35.225499999999997
],
"type" : "Point"
},
"properties" : { "address1" : null,
  "address2" : null,
  "city" : "Charlotte",
  "description" : null,
  "id" : 7,
  "lastUpdateDate" : "2014-01-01T00:00:00.000Z",
  "name" : "Outside BB&T",
  "state" : "NC",
  "totalDistributed" : 250,
  "totalUpdates" : 1,
  "zip" : null
},
"type" : "Feature"
},
{ "geometry" : { "coordinates" : [ -80.845200000000006,
  35.227200000000003
],
"type" : "Point"
},
"properties" : { "address1" : null,
  "address2" : null,
  "city" : "Charlotte",
  "description" : null,
  "id" : 8,
  "lastUpdateDate" : "2014-01-01T00:00:00.000Z",
  "name" : "Outside parking garage #1",
  "state" : "NC",
  "totalDistributed" : 250,
  "totalUpdates" : 1,
  "zip" : null
},
"type" : "Feature"
},
{ "geometry" : { "coordinates" : [ -80.848399999999998,
  35.225200000000001
],
"type" : "Point"
},
"properties" : { "address1" : null,
  "address2" : null,
  "city" : "Charlotte",
  "description" : null,
  "id" : 9,
  "lastUpdateDate" : "2014-01-01T00:00:00.000Z",
  "name" : "Outside American Roadside Burgers",
  "state" : "NC",
  "totalDistributed" : 250,
  "totalUpdates" : 1,
  "zip" : null
},
"type" : "Feature"
},
{ "geometry" : { "coordinates" : [ -80.848399999999998,
  35.225000000000001
],
"type" : "Point"
},
"properties" : { "address1" : null,
  "address2" : null,
  "city" : "Charlotte",
  "description" : null,
  "id" : 10,
  "lastUpdateDate" : "2014-01-01T00:00:00.000Z",
  "name" : "Uptown Starbucks #1",
  "state" : "NC",
  "totalDistributed" : 250,
  "totalUpdates" : 1,
  "zip" : null
},
"type" : "Feature"
},
{ "geometry" : { "coordinates" : [ -80.848699999999994,
  35.225099999999998
],
"type" : "Point"
},
"properties" : { "address1" : null,
  "address2" : null,
  "city" : "Charlotte",
  "description" : null,
  "id" : 11,
  "lastUpdateDate" : "2014-01-01T00:00:00.000Z",
  "name" : "Uptown Starbucks #2",
  "state" : "NC",
  "totalDistributed" : 250,
  "totalUpdates" : 1,
  "zip" : null
},
"type" : "Feature"
},
{ "geometry" : { "coordinates" : [ -80.844200000000001,
  35.224899999999998
],
"type" : "Point"
},
"properties" : { "address1" : null,
  "address2" : null,
  "city" : "Charlotte",
  "description" : null,
  "id" : 12,
  "lastUpdateDate" : "2014-01-01T00:00:00.000Z",
  "name" : "Outside parking garage #2",
  "state" : "NC",
  "totalDistributed" : 250,
  "totalUpdates" : 1,
  "zip" : null
},
"type" : "Feature"
},
{ "geometry" : { "coordinates" : [ -80.845299999999995,
  35.2239
],
"type" : "Point"
},
"properties" : { "address1" : null,
  "address2" : null,
  "city" : "Charlotte",
  "description" : null,
  "id" : 13,
  "lastUpdateDate" : "2014-01-01T00:00:00.000Z",
  "name" : "Near Convention Center",
  "state" : "NC",
  "totalDistributed" : 250,
  "totalUpdates" : 1,
  "zip" : null
},
"type" : "Feature"
},
{ "geometry" : { "coordinates" : [ -80.840199999999996,
  35.227400000000003
],
"type" : "Point"
},
"properties" : { "address1" : null,
  "address2" : null,
  "city" : "Charlotte",
  "description" : null,
  "id" : 14,
  "lastUpdateDate" : "2014-01-01T00:00:00.000Z",
  "name" : "Outside of Merts",
  "state" : "NC",
  "totalDistributed" : 250,
  "totalUpdates" : 1,
  "zip" : null
},
"type" : "Feature"
},
{ "geometry" : { "coordinates" : [ -80.839799999999997,
  35.227899999999998
],
"type" : "Point"
},
"properties" : { "address1" : null,
  "address2" : null,
  "city" : "Charlotte",
  "description" : null,
  "id" : 15,
  "lastUpdateDate" : "2014-01-01T00:00:00.000Z",
  "name" : "Near library",
  "state" : "NC",
  "totalDistributed" : 250,
  "totalUpdates" : 1,
  "zip" : null
},
"type" : "Feature"
},
{ "geometry" : { "coordinates" : [ -80.831100000000006,
  35.217399999999998
],
"type" : "Point"
},
"properties" : { "address1" : null,
  "address2" : null,
  "city" : "Charlotte",
  "description" : null,
  "id" : 16,
  "lastUpdateDate" : "2014-01-01T00:00:00.000Z",
  "name" : "CPCC #2",
  "state" : "NC",
  "totalDistributed" : 250,
  "totalUpdates" : 1,
  "zip" : null
},
"type" : "Feature"
},
{ "geometry" : { "coordinates" : [ -80.831400000000002,
  35.217500000000001
],
"type" : "Point"
},
"properties" : { "address1" : null,
  "address2" : null,
  "city" : "Charlotte",
  "description" : null,
  "id" : 17,
  "lastUpdateDate" : "2014-01-01T00:00:00.000Z",
  "name" : "CPCC #1",
  "state" : "NC",
  "totalDistributed" : 250,
  "totalUpdates" : 1,
  "zip" : null
},
"type" : "Feature"
},
{ "geometry" : { "coordinates" : [ -80.829700000000003,
  35.216099999999997
],
"type" : "Point"
},
"properties" : { "address1" : null,
  "address2" : null,
  "city" : "Charlotte",
  "description" : null,
  "id" : 18,
  "lastUpdateDate" : "2014-01-01T00:00:00.000Z",
  "name" : "CPCC #3",
  "state" : "NC",
  "totalDistributed" : 250,
  "totalUpdates" : 1,
  "zip" : null
},
"type" : "Feature"
},
{ "geometry" : { "coordinates" : [ -80.811999999999998,
  35.218800000000002
],
"type" : "Point"
},
"properties" : { "address1" : null,
  "address2" : null,
  "city" : "Charlotte",
  "description" : null,
  "id" : 19,
  "lastUpdateDate" : "2014-01-01T00:00:00.000Z",
  "name" : "Common Market",
  "state" : "NC",
  "totalDistributed" : 250,
  "totalUpdates" : 1,
  "zip" : null
},
"type" : "Feature"
},
{ "geometry" : { "coordinates" : [ -80.8125,
  35.220300000000002
],
"type" : "Point"
},
"properties" : { "address1" : null,
  "address2" : null,
  "city" : "Charlotte",
  "description" : null,
  "id" : 20,
  "lastUpdateDate" : "2014-01-01T00:00:00.000Z",
  "name" : "Plaza Bus Stop",
  "state" : "NC",
  "totalDistributed" : 250,
  "totalUpdates" : 1,
  "zip" : null
},
"type" : "Feature"
},
{ "geometry" : { "coordinates" : [ -80.805000000000007,
  35.247399999999999
],
"type" : "Point"
},
"properties" : { "address1" : null,
  "address2" : null,
  "city" : "Charlotte",
  "description" : null,
  "id" : 21,
  "lastUpdateDate" : "2014-01-01T00:00:00.000Z",
  "name" : "NoDa utility pole",
  "state" : "NC",
  "totalDistributed" : 250,
  "totalUpdates" : 1,
  "zip" : null
},
"type" : "Feature"
},
{ "geometry" : { "coordinates" : [ -80.804199999999994,
  35.247399999999999
],
"type" : "Point"
},
"properties" : { "address1" : null,
  "address2" : null,
  "city" : "Charlotte",
  "description" : null,
  "id" : 22,
  "lastUpdateDate" : "2014-01-01T00:00:00.000Z",
  "name" : "Outside of Sanctuary",
  "state" : "NC",
  "totalDistributed" : 250,
  "totalUpdates" : 1,
  "zip" : null
},
"type" : "Feature"
},
{ "geometry" : { "coordinates" : [ -80.858599999999996,
  35.212400000000002
],
"type" : "Point"
},
"properties" : { "address1" : null,
  "address2" : null,
  "city" : "Charlotte",
  "description" : null,
  "id" : 23,
  "lastUpdateDate" : "2014-01-01T00:00:00.000Z",
  "name" : "Lynx East/West Stop",
  "state" : "NC",
  "totalDistributed" : 250,
  "totalUpdates" : 1,
  "zip" : null
},
"type" : "Feature"
},
{ "geometry" : { "coordinates" : [ -80.879400000000004,
  35.176099999999998
],
"type" : "Point"
},
"properties" : { "address1" : null,
  "address2" : null,
  "city" : "Charlotte",
  "description" : null,
  "id" : 24,
  "lastUpdateDate" : "2014-01-01T00:00:00.000Z",
  "name" : "Lynx Woodlawn Station",
  "state" : "NC",
  "totalDistributed" : 250,
  "totalUpdates" : 1,
  "zip" : null
},
"type" : "Feature"
},
{ "geometry" : { "coordinates" : [ -80.883300000000006,
  35.107199999999999
],
"type" : "Point"
},
"properties" : { "address1" : null,
  "address2" : null,
  "city" : "Charlotte",
  "description" : null,
  "id" : 25,
  "lastUpdateDate" : "2014-01-01T00:00:00.000Z",
  "name" : "Lynx I-485 Station",
  "state" : "NC",
  "totalDistributed" : 250,
  "totalUpdates" : 1,
  "zip" : null
},
"type" : "Feature"
},
{ "geometry" : { "coordinates" : [ -80.812899999999999,
  35.220500000000001
],
"type" : "Point"
},
"properties" : { "address1" : null,
  "address2" : null,
  "city" : "Charlotte",
  "description" : null,
  "id" : 26,
  "lastUpdateDate" : "2014-01-01T00:00:00.000Z",
  "name" : "SADU Body Piercing & Modifications",
  "state" : "NC",
  "totalDistributed" : 250,
  "totalUpdates" : 1,
  "zip" : null
},
"type" : "Feature"
},
{ "geometry" : { "coordinates" : [ -80.812799999999996,
  35.218499999999999
],
"type" : "Point"
},
"properties" : { "address1" : null,
  "address2" : null,
  "city" : "Charlotte",
  "description" : null,
  "id" : 27,
  "lastUpdateDate" : "2014-01-01T00:00:00.000Z",
  "name" : "Okra",
  "state" : "NC",
  "totalDistributed" : 250,
  "totalUpdates" : 1,
  "zip" : null
},
"type" : "Feature"
},
{ "geometry" : { "coordinates" : [ -80.861500000000007,
  35.208599999999997
],
"type" : "Point"
},
"properties" : { "address1" : null,
  "address2" : null,
  "city" : "Charlotte",
  "description" : null,
  "id" : 28,
  "lastUpdateDate" : "2014-01-01T00:00:00.000Z",
  "name" : "Luna's Living Kitchen",
  "state" : "NC",
  "totalDistributed" : 250,
  "totalUpdates" : 1,
  "zip" : null
},
"type" : "Feature"
},
{ "geometry" : { "coordinates" : [ -80.812700000000007,
  35.218600000000002
],
"type" : "Point"
},
"properties" : { "address1" : null,
  "address2" : null,
  "city" : "Charlotte",
  "description" : null,
  "id" : 29,
  "lastUpdateDate" : "2014-01-01T00:00:00.000Z",
  "name" : "Eco-Licious",
  "state" : "NC",
  "totalDistributed" : 250,
  "totalUpdates" : 1,
  "zip" : null
},
"type" : "Feature"
},
{ "geometry" : { "coordinates" : [ -80.792500000000004,
  35.2044
],
"type" : "Point"
},
"properties" : { "address1" : null,
  "address2" : null,
  "city" : "Charlotte",
  "description" : null,
  "id" : 30,
  "lastUpdateDate" : "2014-01-01T00:00:00.000Z",
  "name" : "Bean Vegan Cuisine",
  "state" : "NC",
  "totalDistributed" : 250,
  "totalUpdates" : 1,
  "zip" : null
},
"type" : "Feature"
},
{ "geometry" : { "coordinates" : [ -80.810299999999998,
  35.220700000000001
],
"type" : "Point"
},
"properties" : { "address1" : null,
  "address2" : null,
  "city" : "Charlotte",
  "description" : null,
  "id" : 31,
  "lastUpdateDate" : "2014-01-01T00:00:00.000Z",
  "name" : "The Greener Apple",
  "state" : "NC",
  "totalDistributed" : 250,
  "totalUpdates" : 1,
  "zip" : null
},
"type" : "Feature"
},
{ "geometry" : { "coordinates" : [ -80.846299999999999,
  35.224800000000002
],
"type" : "Point"
},
"properties" : { "address1" : null,
  "address2" : null,
  "city" : "Charlotte",
  "description" : null,
  "id" : 2,
  "lastUpdateDate" : "2014-06-22T00:00:00.000Z",
  "name" : "S Tryon & MLK #2",
  "state" : "NC",
  "totalDistributed" : 650,
  "totalUpdates" : 2,
  "zip" : null
},
"type" : "Feature"
},
{ "geometry" : { "coordinates" : [ -80.841899999999995,
  35.228099999999998
],
"type" : "Point"
},
"properties" : { "address1" : null,
  "address2" : null,
  "city" : "Charlotte",
  "description" : null,
  "id" : 3,
  "lastUpdateDate" : "2014-11-05T00:00:00.000Z",
  "name" : "Outside Capital Grille",
  "state" : "NC",
  "totalDistributed" : 334,
  "totalUpdates" : 2,
  "zip" : null
},
"type" : "Feature"
},
{ "geometry" : { "coordinates" : [ -80.846400000000003,
  35.224800000000002
],
"type" : "Point"
},
"properties" : { "address1" : null,
  "address2" : null,
  "city" : "Charlotte",
  "description" : null,
  "id" : 1,
  "lastUpdateDate" : "2014-11-22T00:00:00.000Z",
  "name" : "S Tryon & MLK #1",
  "state" : "NC",
  "totalDistributed" : 910,
  "totalUpdates" : 5,
  "zip" : null
},
"type" : "Feature"
}
],
"type" : "FeatureCollection"
}
